[
  {
    "id": "islamic-society-of-toronto-dundas",
    "name": "Islamic Society of Toronto (Dundas)",
    "address": "4 Thorncliffe Park Drive",
    "city": "Toronto",
    "stateProvince": "Ontario",
    "country": "Canada",
    "postalCode": "M4H 1H1",
    "coordinates": { "lat": 43.7035, "lng": -79.3468 },
    "phone": "(416) 467-6132",
    "website": "https://www.isttoronto.com",
    "notes": "Toronto کی سب سے بڑی جماعتوں میں سے ایک۔ تعلیمی پروگرام اور کمیونٹی خدمات فراہم کرتی ہے۔"
  },
  {
    "id": "taric-islamic-centre",
    "name": "Toronto and Region Islamic Congregation (TARIC)",
    "address": "7 Rondell Avenue",
    "city": "North York",
    "stateProvince": "Ontario",
    "country": "Canada",
    "postalCode": "M1K 2V4",
    "coordinates": { "lat": 43.7615, "lng": -79.3412 },
    "phone": "(416) 312-0608",
    "website": "https://www.taric.ca",
    "notes": "نو مسلموں کے لیے امدادی پروگرام، نوجوانوں کے گروپس، اور ہفتہ وار اسلامی اسکول کے ساتھ فعال کمیونٹی۔"
  },
  {
    "id": "masjid-toronto-adelaide",
    "name": "Masjid Toronto (at Adelaide)",
    "address": "168 Dundas Street West",
    "city": "Toronto",
    "stateProvince": "Ontario",
    "country": "Canada",
    "postalCode": "M5G 1C2",
    "coordinates": { "lat": 43.6536, "lng": -79.3849 },
    "phone": "(416) 644-0808",
    "website": "https://www.masjidtoronto.com",
    "notes": "ڈاؤن ٹاؤن میں واقع، نئے مسلمانوں کے لیے خوش آمدید ماحول۔ نئے مسلمانوں کے لیے کلاسیں اور انگریزی میں جمعے کے خطبات پیش کرتی ہے۔"
  },
  {
    "id": "islamic-foundation-of-toronto",
    "name": "Islamic Foundation of Toronto",
    "address": "441 Nugget Avenue",
    "city": "Scarborough",
    "stateProvince": "Ontario",
    "country": "Canada",
    "postalCode": "M1S 5E1",
    "coordinates": { "lat": 43.7874, "lng": -79.2636 },
    "phone": "(416) 321-0909",
    "website": "https://www.islamicfoundation.ca",
    "notes": "فل ٹائم اسکول، ہفتہ وار پروگرامز، اور نو مسلموں کے لیے خوش آمدید ماحول کے ساتھ بڑی سہولت۔"
  },
  {
    "id": "khalid-bin-al-walid-mosque",
    "name": "Khalid Bin Al-Walid Mosque",
    "address": "7 St. Dennis Drive",
    "city": "Etobicoke",
    "stateProvince": "Ontario",
    "country": "Canada",
    "postalCode": "M9A 1B5",
    "coordinates": { "lat": 43.6568, "lng": -79.5281 },
    "phone": "(416) 652-3131",
    "website": "https://www.kbwmosque.com",
    "notes": "Etobicoke کی کمیونٹی کی خدمت کرتی ہے۔ کمیونٹی رسائی اور بین المذاہب مکالمے کے لیے مشہور ہے۔"
  },
  {
    "id": "imdadul-islamic-centre",
    "name": "Imdadul Islamic Centre",
    "address": "73 Chevington Road",
    "city": "Scarborough",
    "stateProvince": "Ontario",
    "country": "Canada",
    "postalCode": "M1K 2H5",
    "coordinates": { "lat": 43.7254, "lng": -79.2597 },
    "phone": "(416) 265-7833",
    "website": "https://www.imdadul.ca",
    "notes": "کمیونٹی پر مرکوز مرکز جو باقاعدہ کلاسیں، نوجوانوں کے پروگرام، اور نو مسلموں کے لیے امداد فراہم کرتا ہے۔"
  },
  {
    "id": "masjid-el-noor",
    "name": "Masjid El Noor",
    "address": "123 Wynford Drive",
    "city": "Toronto",
    "stateProvince": "Ontario",
    "country": "Canada",
    "postalCode": "M3C 1K1",
    "coordinates": { "lat": 43.7224, "lng": -79.3381 },
    "phone": "(416) 382-0006",
    "website": "https://www.masjidelnoor.com",
    "notes": "روزانہ نمازیں، Quran کی کلاسیں، اور کمیونٹی تقریبات پیش کرتی ہے۔ اسلام میں نئے آنے والوں کے لیے خوش آمدید ماحول۔"
  },
  {
    "id": "islamic-institute-of-toronto",
    "name": "Islamic Institute of Toronto",
    "address": "1630 Neilson Road",
    "city": "Scarborough",
    "stateProvince": "Ontario",
    "country": "Canada",
    "postalCode": "M1X 1S3",
    "coordinates": { "lat": 43.7903, "lng": -79.2141 },
    "phone": "(416) 335-9173",
    "website": "https://www.iit.ca",
    "notes": "اسکول، لائبریری، اور باقاعدہ کمیونٹی پروگرامنگ کے ساتھ جامع اسلامی تعلیمی مرکز۔"
  },
  {
    "id": "jami-mosque",
    "name": "Jami Mosque",
    "address": "56 Boustead Avenue",
    "city": "Toronto",
    "stateProvince": "Ontario",
    "country": "Canada",
    "postalCode": "M6R 1Z1",
    "coordinates": { "lat": 43.6474, "lng": -79.4446 },
    "phone": "(416) 769-1192",
    "notes": "Toronto کی سب سے پرانی مسجد، 1968 میں قائم ہوئی۔ ایک تاریخی اور قریبی کمیونٹی کی جگہ۔"
  },
  {
    "id": "abu-huraira-center",
    "name": "Abu Huraira Center",
    "address": "100 McLevin Avenue",
    "city": "Scarborough",
    "stateProvince": "Ontario",
    "country": "Canada",
    "postalCode": "M1B 2V5",
    "coordinates": { "lat": 43.8053, "lng": -79.2003 },
    "phone": "(416) 335-8894",
    "website": "https://www.abuhurairacenter.com",
    "notes": "فعال صومالی-کینیڈین کمیونٹی سینٹر۔ نو مسلموں کے لیے رہنمائی اور تعلیمی پروگراموں کے ساتھ دوستانہ ماحول۔"
  },
  {
    "id": "baitul-mukarram-masjid",
    "name": "Baitul Mukarram Masjid",
    "address": "84 Rivalda Road",
    "city": "Toronto",
    "stateProvince": "Ontario",
    "country": "Canada",
    "postalCode": "M9M 2M8",
    "coordinates": { "lat": 43.7412, "lng": -79.5143 },
    "phone": "(416) 744-1400",
    "notes": "بنگلادیشی کمیونٹی کی مسجد جس میں باقاعدہ تعلیمی اور کمیونٹی پروگرامنگ ہوتی ہے۔"
  },
  {
    "id": "isna-islamic-centre-of-canada",
    "name": "Islamic Centre of Canada (ISNA)",
    "address": "2200 South Sheridan Way",
    "city": "Mississauga",
    "stateProvince": "Ontario",
    "country": "Canada",
    "postalCode": "L5J 2M4",
    "coordinates": { "lat": 43.5063, "lng": -79.6505 },
    "phone": "(905) 403-8406",
    "website": "https://www.isnacanada.com",
    "notes": "کینیڈا کے سب سے بڑے اسلامی مراکز میں سے ایک۔ بڑی تقریبات، نو مسلموں کے پروگرام، ہفتہ وار اسکول، اور بین المذاہب رسائی کی میزبانی کرتا ہے۔ نئے مسلمانوں کے لیے انتہائی تجویز کردہ۔"
  }
]
