[
  {
    "id": "islamic-society-of-toronto-dundas",
    "name": "Islamic Society of Toronto (Dundas)",
    "address": "4 Thorncliffe Park Drive",
    "city": "Toronto",
    "stateProvince": "Ontario",
    "country": "Canada",
    "postalCode": "M4H 1H1",
    "coordinates": {
      "lat": 43.7035,
      "lng": -79.3468
    },
    "phone": "(416) 467-6132",
    "website": "https://www.isttoronto.com",
    "notes": "Toronto में सबसे बड़ी मंडलियों में से एक। शैक्षिक कार्यक्रम और सामुदायिक सेवाएँ प्रदान करता है।"
  },
  {
    "id": "taric-islamic-centre",
    "name": "Toronto and Region Islamic Congregation (TARIC)",
    "address": "7 Rondell Avenue",
    "city": "North York",
    "stateProvince": "Ontario",
    "country": "Canada",
    "postalCode": "M1K 2V4",
    "coordinates": {
      "lat": 43.7615,
      "lng": -79.3412
    },
    "phone": "(416) 312-0608",
    "website": "https://www.taric.ca",
    "notes": "परिवर्तित सहायता कार्यक्रमों, युवा समूहों और सप्ताहांत इस्लामिक स्कूल के साथ सक्रिय समुदाय।"
  },
  {
    "id": "masjid-toronto-adelaide",
    "name": "Masjid Toronto (at Adelaide)",
    "address": "168 Dundas Street West",
    "city": "Toronto",
    "stateProvince": "Ontario",
    "country": "Canada",
    "postalCode": "M5G 1C2",
    "coordinates": {
      "lat": 43.6536,
      "lng": -79.3849
    },
    "phone": "(416) 644-0808",
    "website": "https://www.masjidtoronto.com",
    "notes": "शहर का मुख्य स्थान, नए मुसलमानों का स्वागत। अंग्रेजी में नई मुस्लिम कक्षाएं और शुक्रवार खुतबा पेश करता है।"
  },
  {
    "id": "islamic-foundation-of-toronto",
    "name": "Islamic Foundation of Toronto",
    "address": "441 Nugget Avenue",
    "city": "Scarborough",
    "stateProvince": "Ontario",
    "country": "Canada",
    "postalCode": "M1S 5E1",
    "coordinates": {
      "lat": 43.7874,
      "lng": -79.2636
    },
    "phone": "(416) 321-0909",
    "website": "https://www.islamicfoundation.ca",
    "notes": "पूर्णकालिक स्कूल, सप्ताहांत कार्यक्रमों और धर्मान्तरित लोगों के लिए स्वागत योग्य वातावरण के साथ बड़ी सुविधा।"
  },
  {
    "id": "khalid-bin-al-walid-mosque",
    "name": "Khalid Bin Al-Walid Mosque",
    "address": "7 St. Dennis Drive",
    "city": "Etobicoke",
    "stateProvince": "Ontario",
    "country": "Canada",
    "postalCode": "M9A 1B5",
    "coordinates": {
      "lat": 43.6568,
      "lng": -79.5281
    },
    "phone": "(416) 652-3131",
    "website": "https://www.kbwmosque.com",
    "notes": "एटोबिकोक समुदाय की सेवा करता है। सामुदायिक आउटरीच और अंतरधार्मिक संवाद के लिए जाना जाता है।"
  },
  {
    "id": "imdadul-islamic-centre",
    "name": "Imdadul Islamic Centre",
    "address": "73 Chevington Road",
    "city": "Scarborough",
    "stateProvince": "Ontario",
    "country": "Canada",
    "postalCode": "M1K 2H5",
    "coordinates": {
      "lat": 43.7254,
      "lng": -79.2597
    },
    "phone": "(416) 265-7833",
    "website": "https://www.imdadul.ca",
    "notes": "समुदाय-केंद्रित केंद्र नियमित कक्षाएं, युवा कार्यक्रम और रूपांतरण सहायता प्रदान करता है।"
  },
  {
    "id": "masjid-el-noor",
    "name": "Masjid El Noor",
    "address": "123 Wynford Drive",
    "city": "Toronto",
    "stateProvince": "Ontario",
    "country": "Canada",
    "postalCode": "M3C 1K1",
    "coordinates": {
      "lat": 43.7224,
      "lng": -79.3381
    },
    "phone": "(416) 382-0006",
    "website": "https://www.masjidelnoor.com",
    "notes": "दैनिक प्रार्थनाएँ, Quran कक्षाएं और सामुदायिक कार्यक्रम प्रदान करता है। इस्लाम में नए लोगों के लिए स्वागत का माहौल।"
  },
  {
    "id": "islamic-institute-of-toronto",
    "name": "Islamic Institute of Toronto",
    "address": "1630 Neilson Road",
    "city": "Scarborough",
    "stateProvince": "Ontario",
    "country": "Canada",
    "postalCode": "M1X 1S3",
    "coordinates": {
      "lat": 43.7903,
      "lng": -79.2141
    },
    "phone": "(416) 335-9173",
    "website": "https://www.iit.ca",
    "notes": "एक स्कूल, पुस्तकालय और नियमित सामुदायिक प्रोग्रामिंग के साथ व्यापक इस्लामी शिक्षा केंद्र।"
  },
  {
    "id": "jami-mosque",
    "name": "Jami Mosque",
    "address": "56 Boustead Avenue",
    "city": "Toronto",
    "stateProvince": "Ontario",
    "country": "Canada",
    "postalCode": "M6R 1Z1",
    "coordinates": {
      "lat": 43.6474,
      "lng": -79.4446
    },
    "phone": "(416) 769-1192",
    "notes": "Toronto में सबसे पुरानी मस्जिद, 1968 में स्थापित। एक ऐतिहासिक और अंतरंग सामुदायिक स्थान।"
  },
  {
    "id": "abu-huraira-center",
    "name": "Abu Huraira Center",
    "address": "100 McLevin Avenue",
    "city": "Scarborough",
    "stateProvince": "Ontario",
    "country": "Canada",
    "postalCode": "M1B 2V5",
    "coordinates": {
      "lat": 43.8053,
      "lng": -79.2003
    },
    "phone": "(416) 335-8894",
    "website": "https://www.abuhurairacenter.com",
    "notes": "सक्रिय सोमाली-कनाडाई सामुदायिक केंद्र। परामर्श और शैक्षिक कार्यक्रमों के साथ परिवर्तन-अनुकूल।"
  },
  {
    "id": "baitul-mukarram-masjid",
    "name": "Baitul Mukarram Masjid",
    "address": "84 Rivalda Road",
    "city": "Toronto",
    "stateProvince": "Ontario",
    "country": "Canada",
    "postalCode": "M9M 2M8",
    "coordinates": {
      "lat": 43.7412,
      "lng": -79.5143
    },
    "phone": "(416) 744-1400",
    "notes": "नियमित शैक्षिक और सामुदायिक प्रोग्रामिंग के साथ बांग्लादेशी समुदाय मस्जिद।"
  },
  {
    "id": "isna-islamic-centre-of-canada",
    "name": "Islamic Centre of Canada (ISNA)",
    "address": "2200 South Sheridan Way",
    "city": "Mississauga",
    "stateProvince": "Ontario",
    "country": "Canada",
    "postalCode": "L5J 2M4",
    "coordinates": {
      "lat": 43.5063,
      "lng": -79.6505
    },
    "phone": "(905) 403-8406",
    "website": "https://www.isnacanada.com",
    "notes": "Canada में सबसे बड़े इस्लामी केंद्रों में से एक। प्रमुख कार्यक्रमों, रूपांतरण कार्यक्रमों, सप्ताहांत स्कूल और अंतरधार्मिक आउटरीच की मेजबानी करता है। नए मुसलमानों के लिए अत्यधिक अनुशंसित।"
  }
]
