[
  {
    "id": "islamic-society-of-toronto-dundas",
    "name": "Islamic Society of Toronto (Dundas)",
    "address": "4 Thorncliffe Park Drive",
    "city": "Toronto",
    "stateProvince": "Ontario",
    "country": "Canada",
    "postalCode": "M4H 1H1",
    "coordinates": {
      "lat": 43.7035,
      "lng": -79.3468
    },
    "phone": "(416) 467-6132",
    "website": "https://www.isttoronto.com",
    "notes": "One of the largest congregations in Toronto. Offers educational programs and community services."
  },
  {
    "id": "taric-islamic-centre",
    "name": "Toronto and Region Islamic Congregation (TARIC)",
    "address": "7 Rondell Avenue",
    "city": "North York",
    "stateProvince": "Ontario",
    "country": "Canada",
    "postalCode": "M1K 2V4",
    "coordinates": {
      "lat": 43.7615,
      "lng": -79.3412
    },
    "phone": "(416) 312-0608",
    "website": "https://www.taric.ca",
    "notes": "Active community with convert support programs, youth groups, and weekend Islamic school."
  },
  {
    "id": "masjid-toronto-adelaide",
    "name": "Masjid Toronto (at Adelaide)",
    "address": "168 Dundas Street West",
    "city": "Toronto",
    "stateProvince": "Ontario",
    "country": "Canada",
    "postalCode": "M5G 1C2",
    "coordinates": {
      "lat": 43.6536,
      "lng": -79.3849
    },
    "phone": "(416) 644-0808",
    "website": "https://www.masjidtoronto.com",
    "notes": "Downtown location, welcoming to new Muslims. Offers new Muslim classes and Friday khutbahs in English."
  },
  {
    "id": "islamic-foundation-of-toronto",
    "name": "Islamic Foundation of Toronto",
    "address": "441 Nugget Avenue",
    "city": "Scarborough",
    "stateProvince": "Ontario",
    "country": "Canada",
    "postalCode": "M1S 5E1",
    "coordinates": {
      "lat": 43.7874,
      "lng": -79.2636
    },
    "phone": "(416) 321-0909",
    "website": "https://www.islamicfoundation.ca",
    "notes": "Large facility with full-time school, weekend programs, and a welcoming environment for converts."
  },
  {
    "id": "khalid-bin-al-walid-mosque",
    "name": "Khalid Bin Al-Walid Mosque",
    "address": "7 St. Dennis Drive",
    "city": "Etobicoke",
    "stateProvince": "Ontario",
    "country": "Canada",
    "postalCode": "M9A 1B5",
    "coordinates": {
      "lat": 43.6568,
      "lng": -79.5281
    },
    "phone": "(416) 652-3131",
    "website": "https://www.kbwmosque.com",
    "notes": "Serves the Etobicoke community. Known for community outreach and interfaith dialogue."
  },
  {
    "id": "imdadul-islamic-centre",
    "name": "Imdadul Islamic Centre",
    "address": "73 Chevington Road",
    "city": "Scarborough",
    "stateProvince": "Ontario",
    "country": "Canada",
    "postalCode": "M1K 2H5",
    "coordinates": {
      "lat": 43.7254,
      "lng": -79.2597
    },
    "phone": "(416) 265-7833",
    "website": "https://www.imdadul.ca",
    "notes": "Community-focused centre offering regular classes, youth programs, and convert support."
  },
  {
    "id": "masjid-el-noor",
    "name": "Masjid El Noor",
    "address": "123 Wynford Drive",
    "city": "Toronto",
    "stateProvince": "Ontario",
    "country": "Canada",
    "postalCode": "M3C 1K1",
    "coordinates": {
      "lat": 43.7224,
      "lng": -79.3381
    },
    "phone": "(416) 382-0006",
    "website": "https://www.masjidelnoor.com",
    "notes": "Offers daily prayers, Quran classes, and community events. Welcoming atmosphere for newcomers to Islam."
  },
  {
    "id": "islamic-institute-of-toronto",
    "name": "Islamic Institute of Toronto",
    "address": "1630 Neilson Road",
    "city": "Scarborough",
    "stateProvince": "Ontario",
    "country": "Canada",
    "postalCode": "M1X 1S3",
    "coordinates": {
      "lat": 43.7903,
      "lng": -79.2141
    },
    "phone": "(416) 335-9173",
    "website": "https://www.iit.ca",
    "notes": "Comprehensive Islamic education centre with a school, library, and regular community programming."
  },
  {
    "id": "jami-mosque",
    "name": "Jami Mosque",
    "address": "56 Boustead Avenue",
    "city": "Toronto",
    "stateProvince": "Ontario",
    "country": "Canada",
    "postalCode": "M6R 1Z1",
    "coordinates": {
      "lat": 43.6474,
      "lng": -79.4446
    },
    "phone": "(416) 769-1192",
    "notes": "Oldest mosque in Toronto, established in 1968. A historic and intimate community space."
  },
  {
    "id": "abu-huraira-center",
    "name": "Abu Huraira Center",
    "address": "100 McLevin Avenue",
    "city": "Scarborough",
    "stateProvince": "Ontario",
    "country": "Canada",
    "postalCode": "M1B 2V5",
    "coordinates": {
      "lat": 43.8053,
      "lng": -79.2003
    },
    "phone": "(416) 335-8894",
    "website": "https://www.abuhurairacenter.com",
    "notes": "Active Somali-Canadian community centre. Convert-friendly with mentorship and educational programs."
  },
  {
    "id": "baitul-mukarram-masjid",
    "name": "Baitul Mukarram Masjid",
    "address": "84 Rivalda Road",
    "city": "Toronto",
    "stateProvince": "Ontario",
    "country": "Canada",
    "postalCode": "M9M 2M8",
    "coordinates": {
      "lat": 43.7412,
      "lng": -79.5143
    },
    "phone": "(416) 744-1400",
    "notes": "Bangladeshi community mosque with regular educational and community programming."
  },
  {
    "id": "isna-islamic-centre-of-canada",
    "name": "Islamic Centre of Canada (ISNA)",
    "address": "2200 South Sheridan Way",
    "city": "Mississauga",
    "stateProvince": "Ontario",
    "country": "Canada",
    "postalCode": "L5J 2M4",
    "coordinates": {
      "lat": 43.5063,
      "lng": -79.6505
    },
    "phone": "(905) 403-8406",
    "website": "https://www.isnacanada.com",
    "notes": "One of the largest Islamic centres in Canada. Hosts major events, convert programs, weekend school, and interfaith outreach. Highly recommended for new Muslims."
  }
]
